{
  "popularCities": [
    {"name": "New York", "country": "US", "lat": 40.7128, "lon": -74.0060},
    {"name": "London", "country": "UK", "lat": 51.5074, "lon": -0.1278},
    {"name": "Paris", "country": "FR", "lat": 48.8566, "lon": 2.3522},
    {"name": "Tokyo", "country": "JP", "lat": 35.6762, "lon": 139.6503},
    {"name": "Sydney", "country": "AU", "lat": -33.8688, "lon": 151.2093},
    {"name": "Dubai", "country": "AE", "lat": 25.2048, "lon": 55.2708},
    {"name": "Singapore", "country": "SG", "lat": 1.3521, "lon": 103.8198},
    {"name": "Hong Kong", "country": "HK", "lat": 22.3193, "lon": 114.1694},
    {"name": "Toronto", "country": "CA", "lat": 43.6532, "lon": -79.3832},
    {"name": "Mumbai", "country": "IN", "lat": 19.0760, "lon": 72.8777}
  ]
}
